[
    {
      "id": 1,
      "lat": 35.34009052155808, 
      "lng": 25.133699743721326,
      "type": "COFFEE",
      "name": " CENTRAL PARK ",
      "desc": "Cafe-Restaurant",
      "address": "Αρκολεων 19, Ηράκλειο 712 02",
      "city": "HER",
      "link": "http://www.central-park.gr/en/"
    },
    {
      "id": 2,
      "lat": 35.34056312094003,  
      "lng": 25.134515135272668,
      "type": "COFFEE",
      "name": "Indigo",
      "desc": "Cafe",
      "address": "25ης Αυγούστου 76",
      "city": "HER",
      "link": "https://m.facebook.com/indigocoffee/?locale2=el_GR"
    },
    {
      "id": 3,
      "lat": 35.33967317147665, 
      "lng": 25.135850800408328,
      "type": "COFFEE",
      "name": "Crop",
      "desc": "Cafe",
      "address": "Αρετούσας 4, Ηράκλειο 712 02",
      "city": "HER",
      "link": "http://www.crop.coffee/el/"
    },
    {
      "id": 4,
      "lat": 35.34014952343556,
      "lng":  25.133881160464178,
      "type": "COFFEE",
      "name": "DaVinci Gelato ",
      "desc":  "Cafe-Gelateria",
      "address": "25ης Αυγούστου 90",
      "city": "HER",
      "link": "https://www.davincigelato.gr"
    },
    {
      "id": 5,
      "lat": 35.338260044061606,     
      "lng": 25.130751978071693,
      "type": "COFFEE",
      "name": "Μινιατούρα",
      "desc": "Cafe",
      "address": "Μονής Οδηγήτριας 11, Ηράκλειο 712 01",
      "city": "HER",
      "link": "https://www.facebook.com/miniatoura.cafe"
    },
    {
      "id": 6,
      "lat": 35.339677965442604,    
      "lng": 25.13579965333381,
      "type": "COFFEE",
      "name": "ΦΙΞ",
      "desc": "Cafe",
      "address": "Αρετούσας 2",
      "city": "HER",
      "link": "https://www.facebook.com/fix.heraklion"
    },
    {
      "id": 7,
      "lat": 35.33959442017098,  
      "lng":  25.1351661862175,
      "type": "COFFEE",
      "name": "PLASTELINA",
      "desc": "Cafe-Bar",
      "address": "Ιδαίου Άντρου",
      "city": "HER",
      "link": "https://plastelina.gr/"
    },
    {
      "id": 8,
      "lat": 35.33798634850639,   
      "lng": 25.13113134780962,
      "type": "COFFEE",
      "name": "Frankly cafe",
      "desc": "Cafe",
      "address": "Καρτερού 60, Ηράκλειο 712 01",
      "city": "HER",
      "link": "http://franklymydear.gr/"
    },
    {
      "id": 9,
      "lat": 35.34061333121777,    
      "lng": 25.130834170984095,
      "type": "COFFEE",
      "name": "Μπισκότο",
      "desc": "Cafe",
      "address": "Χάνδακος 36",
      "city": "HER",
      "link": "https://www.biscotto.coffee/MenuWithPricelistGreek2017.pdf"
    },
    {
      "id": 10,
      "lat": 35.33106063341267,     
      "lng": 25.133672512655785,
      "type": "COFFEE",
      "name": "Hacienda",
      "desc": "Cafe",
      "address": "Λεωφ. Ανδρέα Παπανδρέου 25, Ηράκλειο 713 05",
      "city": "HER",
      "link": "https://haciendacafe.gr/#menu-hacienda"
    },
    {
      "id": 11,
      "lat": 35.365590660769016,      
      "lng": 24.4736627265284,
      "type": "COFFEE",
      "name": "Barrio The Neighbourhood Cafe",
      "desc": "Cafe",
      "address": "Δημητρακάκη 1",
      "city": "RETH",
      "link": "https://www.barrio.gr/"
    },
    {
      "id": 12,
      "lat": 35.36539333182553,      
      "lng": 24.48084017110614,
      "type": "COFFEE",
      "name": "Vivliothiki Café",
      "desc": "Cafe",
      "address": "Κουντουριώτου 127",
      "city": "RETH",
      "link": "https://www.facebook.com/Vivliothikicoffee/"
    },
    {
      "id": 13,
      "lat": 35.3691484472462,     
      "lng": 24.476734286050508,
      "type": "COFFEE",
      "name": "Fraoules",
      "desc": "Cafe",
      "address": "Ελεϋθερίου Βενιζέλου 62",
      "city": "RETH",
      "link": "https://www.facebook.com/fraoulescafe/about/?ref=page_internal"
    },
    {
      "id": 14,
      "lat": 35.37206155481809,   
      "lng": 24.474102124678204,
      "type": "COFFEE",
      "name": "Voustasia Coctail bar",
      "desc": "Cafe-Cocktail Bar",
      "address": "Λεωφ. Εμμανουήλ Κεφαλογιάννη 20",
      "city": "RETH",
      "link": "https://www.instagram.com/voustasia_cocktail_bar/?hl=en"
    },
    {
      "id": 15,
      "lat": 35.36985118756559,     
      "lng": 24.474748385747727,
      "type": "COFFEE",
      "name": "Cul de Sac",
      "desc": "Cafe",
      "address": "Πλατεία Τίτου Πετυχάκη 7",
      "city": "RETH",
      "link": "https://www.culdesac.gr/home.html"
    },
    {
      "id": 16,
      "lat": 35.372062193755035,     
      "lng": 24.47426054003462,
      "type": "COFFEE",
      "name": "Home",
      "desc": "Cafe-Bar",
      "address": "HOME Cafe Bar",
      "city": "RETH",
      "link": "https://www.facebook.com/homeseaside/"
    },
    {
      "id": 17,
      "lat": 35.36553435184949,     
      "lng": 24.47384607024791,
      "type": "COFFEE",
      "name": "Bankery",
      "desc": "Cafe",
      "address": "Δημητρακάκη 2",
      "city": "RETH",
      "link": "https://el-gr.facebook.com/bankery.rethymno/"
    },
    {
      "id": 18,
      "lat": 35.36957585912982,     
      "lng": 24.47641418234966,
      "type": "COFFEE",
      "name": "Store 311alldaybar",
      "desc": "Cafe",
      "address": "Ελεϋθερίου Βενιζέλου 73",
      "city": "RETH",
      "link": "https://www.facebook.com/alldaybar.Store311"
    },
    {
      "id": 19,
      "lat": 35.37073067549307,     
      "lng": 24.475427129430606,
      "type": "COFFEE",
      "name": "Arokaria Cafe",
      "desc": "Cafe",
      "address": "Σαλαμίνος 7",
      "city": "RETH",
      "link": "https://www.facebook.com/Arokaria"
    },
    {
      "id": 20,
      "lat": 35.36612083353824,     
      "lng": 24.472972289847434,
      "type": "COFFEE",
      "name": "Le jardin",
      "desc": "Cafe",
      "address": "Ηλιακάκη 15-18",
      "city": "RETH",
      "link": ""
    },
    {
      "id": 20,
      "lat": 35.36612083353824,     
      "lng": 24.472972289847434,
      "type": "COFFEE",
      "name": "Le jardin",
      "desc": "Cafe",
      "address": "Ηλιακάκη 15-18",
      "city": "RETH",
      "link": ""
    },
    {
      "id": 20,
      "lat": 35.36612083353824,     
      "lng": 24.472972289847434,
      "type": "COFFEE",
      "name": "Le jardin",
      "desc": "Cafe",
      "address": "Ηλιακάκη 15-18",
      "city": "RETH",
      "link": ""
    },
    {
      "id": 20,
      "lat": 35.36612083353824,     
      "lng": 24.472972289847434,
      "type": "COFFEE",
      "name": "Le jardin",
      "desc": "Cafe",
      "address": "Ηλιακάκη 15-18",
      "city": "RETH",
      "link": ""
    },
    {
      "id": 20,
      "lat": 35.36612083353824,     
      "lng": 24.472972289847434,
      "type": "COFFEE",
      "name": "Le jardin",
      "desc": "Cafe",
      "address": "Ηλιακάκη 15-18",
      "city": "RETH",
      "link": ""
    },
    {
      "id": 20,
      "lat": 35.36612083353824,     
      "lng": 24.472972289847434,
      "type": "COFFEE",
      "name": "Le jardin",
      "desc": "Cafe",
      "address": "Ηλιακάκη 15-18",
      "city": "RETH",
      "link": ""
    },
    {
      "id": 20,
      "lat": 35.36612083353824,     
      "lng": 24.472972289847434,
      "type": "COFFEE",
      "name": "Le jardin",
      "desc": "Cafe",
      "address": "Ηλιακάκη 15-18",
      "city": "RETH",
      "link": ""
    },
    {
      "id": 20,
      "lat": 35.36612083353824,     
      "lng": 24.472972289847434,
      "type": "COFFEE",
      "name": "Le jardin",
      "desc": "Cafe",
      "address": "Ηλιακάκη 15-18",
      "city": "RETH",
      "link": ""
    },
    {
      "id": 20,
      "lat": 35.36612083353824,     
      "lng": 24.472972289847434,
      "type": "COFFEE",
      "name": "Le jardin",
      "desc": "Cafe",
      "address": "Ηλιακάκη 15-18",
      "city": "RETH",
      "link": ""
    },
    {
      "id": 21,
      "lat":  35.51349952660472,     
      "lng":  24.017702399880815,
      "type": "COFFEE",
      "name": "Coffee Lab",
      "desc": "Cafe",
      "address": "Κυδωνίας 65",
      "city": "CHQ",
      "link": "https://www.aera.gr/item/coffee-lab-chania/"
    },
    {
      "id": 22,
      "lat": 35.51428994759033,     
      "lng":  24.015578198772232,
      "type": "COFFEE",
      "name": "Cartoon Cafe",
      "desc": "Cafe",
      "address": "Σκαλίδη 72",
      "city": "CHQ",
      "link": "https://cartoon-cafe-cafe.business.site/"
    },
    {
      "id": 23,
      "lat": 35.51307650050204,      
      "lng": 24.001620863008302,
      "type": "COFFEE",
      "name": "Bello Espresso Bar",
      "desc": "Cafe",
      "address": "Σελίνου 151",
      "city": "CHQ",
      "link": ""
    },
    {
      "id": 24,
      "lat": 35.51732943502874,      
      "lng": 24.017807441875778,
      "type": "COFFEE",
      "name": "Aroma",
      "desc": "Cafe-Restaurant",
      "address": "Ακτή Τομπάζη 4",
      "city": "CHQ",
      "link": "http://www.cafearoma.gr/"
    },
    {
      "id": 25,
      "lat":  35.51557832733635,     
      "lng":  24.019408472763445,
      "type": "COFFEE",
      "name": "Το Μπιζουδάκι ",
      "desc": "Cafe",
      "address": "Ποτιέ 45",
      "city": "CHQ",
      "link": ""
    },
    {
      "id": 26,
      "lat": 35.51669152557869,     
      "lng": 24.01782785639076,
      "type": "COFFEE",
      "name": "Sintrivani Cafe Restaurant",
      "desc": "Cafe-Restaurant",
      "address": "Ακτή Κουντουριώτη 1",
      "city": "CHQ",
      "link": ""
    },
    {
      "id": 27,
      "lat": 35.51864319557071,     
      "lng": 24.018772563637608,
      "type": "COFFEE",
      "name": "Barbarossa",
      "desc": "Cafe",
      "address": "Ακτή Τομπάζη 12",
      "city": "CHQ",
      "link": "http://www.atlasvisual.com/crete-chania-cafes/barbarossa-cafe"
    },
    {
      "id": 28,
      "lat": 35.51260713037224,     
      "lng": 24.02431754362208,
      "type": "COFFEE",
      "name": "Κήπος Καφέ",
      "desc": "Cafe",
      "address": "Στρ. Τζανακάκη",
      "city": "CHQ",
      "link": "https://kiposcafe.gr/"
    },
    {
      "id": 29,
      "lat":  35.51350663935867,   
      "lng":  24.0186014693138,
      "type": "COFFEE",
      "name": "ESCOBAR",
      "desc": "Cafe",
      "address": "Κυδωνίας 42, Χανιά 731 35",
      "city": "CHQ",
      "link": ""
    },
    {
      "id": 30,
      "lat": 35.51588194732488,     
      "lng":  24.01694510749265,
      "type": "COFFEE",
      "name": "Το Μπρικάκι",
      "desc": "Cafe",
      "address": "Κονδυλάκη 26",
      "city": "CHQ",
      "link": "https://tomprikaki.business.site/"
    },
    {
      "id": 31,
      "lat": 35.19144023989282,      
      "lng": 25.72057913713338,
      "type": "COFFEE",
      "name": "Molo Cafe Bar",
      "desc": "Cafe-Bar",
      "address": "Κούνδουρου 6",
      "city": "AGN",
      "link": "http://molo.gr/"
    },
    {
      "id": 32,
      "lat": 35.18917565756316,     
      "lng": 25.714945538627603,
      "type": "COFFEE",
      "name": "To kafedaki",
      "desc": "Cafe",
      "address": "Ρούσου Καπετανάκη, Φιλελλήνων 8",
      "city": "AGN",
      "link": ""
    },
    {
      "id": 33,
      "lat": 35.191034490819426,     
      "lng": 25.717048390439473,
      "type": "COFFEE",
      "name": "Άνω Κάτω",
      "desc": "Cafe",
      "address": "Νικ. Πλαστήρα 18",
      "city": "AGN",
      "link": "https://www.facebook.com/AnoKatoCafe/"
    },
    {
      "id": 34,
      "lat": 35.19005247100155,      
      "lng": 25.720653279259825,
      "type": "COFFEE",
      "name": "Palazzo cafe bar",
      "desc": "Cafe-Bar",
      "address": "Ακτή Πάπα Νικολάου Πάγκαλου 8",
      "city": "AGN",
      "link": "https://www.facebook.com/palazzocafebar/"
    },
    {
      "id": 35,
      "lat":  35.1986096733696,      
      "lng":  25.710482342827962,
      "type": "COFFEE",
      "name": "Entrance cafe",
      "desc": "Cafe",
      "address": "Ανδρέα Παπανδρέου 62",
      "city": "AGN",
      "link": ""
    },
    {
      "id": 36,
      "lat": 35.193208921090765,      
      "lng": 25.71850751198755,
      "type": "COFFEE",
      "name": "Adoro",
      "desc": "Cafe",
      "address": "Καντανολέοντος 14-16",
      "city": "AGN",
      "link": "https://www.arodocafebar.com/"
    },
    {
      "id": 37,
      "lat":  35.19222692752066,     
      "lng":  25.717005474950604,
      "type": "COFFEE",
      "name": "Zygos Urban Garden",
      "desc": "Cafe",
      "address": "2, Εθ. Αντιστάσεως 1",
      "city": "AGN",
      "link": "https://www.instagram.com/explore/locations/51982248/zygos-urbangarden-coffee-food/"
    },
    {
      "id": 38,
      "lat": 35.18949366704955,       
      "lng": 25.717500423049575,
      "type": "COFFEE",
      "name": "Piaza ",
      "desc": "Cafe-Bar",
      "address": "Νικ. Πλαστήρα 1",
      "city": "AGN",
      "link": "https://m.facebook.com/piazzaalldaycafebar/"
    },
    {
      "id": 39,
      "lat": 35.18962518916747,      
      "lng": 25.720772717993064,
      "type": "COFFEE",
      "name": "Bueno",
      "desc": "Cafe",
      "address": "Ακτή Ν. Πάγκαλου 10",
      "city": "AGN",
      "link": ""
    },
    {
      "id": 40,
      "lat": 35.19182596080194,      
      "lng": 25.72136280389263,
      "type": "COFFEE",
      "name": "BOLERO",
      "desc": "Cafe",
      "address": "Ιωσηφ ΚΟΥΝΔΟΥΡΟΥ 1",
      "city": "AGN",
      "link": "https://b-m.facebook.com/Liontis1975/"
    }
  ]